{'mavpackettype': 'RAW_IMU', 'time_usec': 9774040, 'xacc': 17, 'yacc': -4, 'zacc': -994, 'xgyro': 0, 'ygyro': 0, 'zgyro': 0, 'xmag': -145, 'ymag': 129, 'zmag': 345
}
{'mavpackettype': 'SCALED_IMU2', 'time_boot_ms': 9774, 'xacc': 48, 'yacc': -5, 'zacc': -1012, 'xgyro': -2, 'ygyro': -1, 'zgyro': 1, 'xmag': 0, 'ymag': 0, 'zmag': 0
}
{'mavpackettype': 'SCALED_PRESSURE', 'time_boot_ms': 9774, 'press_abs': 1001.2289428710938, 'press_diff': 0.0, 'temperature': 3028
}
{'mavpackettype': 'SYS_STATUS', 'onboard_control_sensors_present': 56687695, 'onboard_control_sensors_enabled': 39885903, 'onboard_control_sensors_health': 56687631, 'load': 194, 'voltage_battery': 33, 'current_battery': 7, 'battery_remaining': 99, 'drop_rate_comm': 0, 'errors_comm': 0, 'errors_count1': 0, 'errors_count2': 0, 'errors_count3': 0, 'errors_count4': 0
}
{'mavpackettype': 'POWER_STATUS', 'Vcc': 4877, 'Vservo': 2, 'flags': 4
}
{'mavpackettype': 'MEMINFO', 'brkval': 0, 'freemem': 37024
}
{'mavpackettype': 'MISSION_CURRENT', 'seq': 0
}
{'mavpackettype': 'GPS_RAW_INT', 'time_usec': 0, 'fix_type': 0, 'lat': 0, 'lon': 0, 'alt': 0, 'eph': 65535, 'epv': 65535, 'vel': 0, 'cog': 0, 'satellites_visible': 0
}
{'mavpackettype': 'NAV_CONTROLLER_OUTPUT', 'nav_roll': 0.22023111581802368, 'nav_pitch': 0.9949790239334106, 'nav_bearing': -137, 'target_bearing': 0, 'wp_dist': 0, 'alt_error': 0.0, 'aspd_error': 0.0, 'xtrack_error': 0.0
}
{'mavpackettype': 'GLOBAL_POSITION_INT', 'time_boot_ms': 9774, 'lat': 0, 'lon': 0, 'alt': 200, 'relative_alt': 208, 'vx': 0, 'vy': 0, 'vz': 0, 'hdg': 22262
}
{'mavpackettype': 'SERVO_OUTPUT_RAW', 'time_usec': 9774831, 'port': 0, 'servo1_raw': 1099, 'servo2_raw': 1099, 'servo3_raw': 1099, 'servo4_raw': 1099, 'servo5_raw': 0, 'servo6_raw': 0, 'servo7_raw': 0, 'servo8_raw': 0
}
{'mavpackettype': 'RC_CHANNELS_RAW', 'time_boot_ms': 9774, 'port': 0, 'chan1_raw': 0, 'chan2_raw': 0, 'chan3_raw': 0, 'chan4_raw': 0, 'chan5_raw': 0, 'chan6_raw': 0, 'chan7_raw': 0, 'chan8_raw': 0, 'rssi': 0
}
{'mavpackettype': 'RC_CHANNELS', 'time_boot_ms': 9774, 'chancount': 0, 'chan1_raw': 0, 'chan2_raw': 0, 'chan3_raw': 0, 'chan4_raw': 0, 'chan5_raw': 0, 'chan6_raw': 0, 'chan7_raw': 0, 'chan8_raw': 0, 'chan9_raw': 0, 'chan10_raw': 0, 'chan11_raw': 0, 'chan12_raw': 0, 'chan13_raw': 0, 'chan14_raw': 0, 'chan15_raw': 0, 'chan16_raw': 0, 'chan17_raw': 0, 'chan18_raw': 0, 'rssi': 0
}
{'mavpackettype': 'ATTITUDE', 'time_boot_ms': 9774, 'roll': 0.003843757789582014, 'pitch': 0.01736566051840782, 'yaw': -2.3978066444396973, 'rollspeed': 0.0024898957926779985, 'pitchspeed': -0.0002124988241121173, 'yawspeed': 0.003633570857346058
}
{'mavpackettype': 'AHRS3', 'roll': 0.0031585691031068563, 'pitch': 0.017861180007457733, 'yaw': -4.198329780612936e-13, 'altitude': 0.0, 'lat': 0, 'lng': 0, 'v1': 0.0, 'v2': 0.0, 'v3': 0.0, 'v4': 0.0
}
{'mavpackettype': 'VFR_HUD', 'airspeed': 0.0, 'groundspeed': 0.0, 'heading': 222, 'throttle': 0, 'alt': 0.19999998807907104, 'climb': -0.0
}
{'mavpackettype': 'AHRS', 'omegaIx': 0.0, 'omegaIy': 0.0, 'omegaIz': 0.0, 'accel_weight': 0.0, 'renorm_val': 0.0, 'error_rp': 0.3282521069049835, 'error_yaw': 0.06984547525644302
}
{'mavpackettype': 'HWSTATUS', 'Vcc': 4877, 'I2Cerr': 0
}
{'mavpackettype': 'SYSTEM_TIME', 'time_unix_usec': 0, 'time_boot_ms': 9775
}
{'mavpackettype': 'BATTERY_STATUS', 'id': 0, 'battery_function': 0, 'type': 0, 'temperature': 32767, 'voltages': [
        65535,
        65535,
        65535,
        65535,
        65535,
        65535,
        65535,
        65535,
        65535,
        65535
    ], 'current_battery': 7, 'current_consumed': 0, 'energy_consumed': 0, 'battery_remaining': 99
}
{'mavpackettype': 'MOUNT_STATUS', 'target_system': 0, 'target_component': 0, 'pointing_a': 0, 'pointing_b': 0, 'pointing_c': 0
}
{'mavpackettype': 'EKF_STATUS_REPORT', 'flags': 0, 'velocity_variance': 0.0, 'pos_horiz_variance': 0.0, 'pos_vert_variance': 0.0, 'compass_variance': 0.0, 'terrain_alt_variance': 0.0
}
{'mavpackettype': 'VIBRATION', 'time_usec': 9775552, 'vibration_x': 0.033063855022192, 'vibration_y': 0.025807492434978485, 'vibration_z': 0.04264016076922417, 'clipping_0': 0, 'clipping_1': 0, 'clipping_2': 0
}
{'mavpackettype': 'TIMESYNC', 'tc1': 0, 'ts1': 10002807001
}
{'mavpackettype': 'RAW_IMU', 'time_usec': 10275851, 'xacc': 16, 'yacc': -3, 'zacc': -994, 'xgyro': 0, 'ygyro': 1, 'zgyro': 0, 'xmag': -145, 'ymag': 129, 'zmag': 344
}
{'mavpackettype': 'SCALED_IMU2', 'time_boot_ms': 10275, 'xacc': 27, 'yacc': -2, 'zacc': -1016, 'xgyro': -1, 'ygyro': 2, 'zgyro': 0, 'xmag': 0, 'ymag': 0, 'zmag': 0
}
{'mavpackettype': 'SCALED_PRESSURE', 'time_boot_ms': 10275, 'press_abs': 1001.2199096679688, 'press_diff': 0.0, 'temperature': 3032
}
{'mavpackettype': 'SYS_STATUS', 'onboard_control_sensors_present': 56687695, 'onboard_control_sensors_enabled': 39885903, 'onboard_control_sensors_health': 56687631, 'load': 214, 'voltage_battery': 76, 'current_battery': 8, 'battery_remaining': 99, 'drop_rate_comm': 0, 'errors_comm': 0, 'errors_count1': 0, 'errors_count2': 0, 'errors_count3': 0, 'errors_count4': 0
}
{'mavpackettype': 'POWER_STATUS', 'Vcc': 4887, 'Vservo': 7, 'flags': 4
}
{'mavpackettype': 'MEMINFO', 'brkval': 0, 'freemem': 37024
}
{'mavpackettype': 'MISSION_CURRENT', 'seq': 0
}
{'mavpackettype': 'NAV_CONTROLLER_OUTPUT', 'nav_roll': 0.1807946115732193, 'nav_pitch': 1.0251128673553467, 'nav_bearing': 0, 'target_bearing': 0, 'wp_dist': 0, 'alt_error': 0.0, 'aspd_error': 0.0, 'xtrack_error': 0.0
}
{'mavpackettype': 'GLOBAL_POSITION_INT', 'time_boot_ms': 10276, 'lat': 0, 'lon': 0, 'alt': 280, 'relative_alt': 289, 'vx': 0, 'vy': 0, 'vz': 2, 'hdg': 0
}
{'mavpackettype': 'SERVO_OUTPUT_RAW', 'time_usec': 10276583, 'port': 0, 'servo1_raw': 1099, 'servo2_raw': 1099, 'servo3_raw': 1099, 'servo4_raw': 1099, 'servo5_raw': 0, 'servo6_raw': 0, 'servo7_raw': 0, 'servo8_raw': 0
}
{'mavpackettype': 'RC_CHANNELS_RAW', 'time_boot_ms': 10276, 'port': 0, 'chan1_raw': 0, 'chan2_raw': 0, 'chan3_raw': 0, 'chan4_raw': 0, 'chan5_raw': 0, 'chan6_raw': 0, 'chan7_raw': 0, 'chan8_raw': 0, 'rssi': 0
}
{'mavpackettype': 'RC_CHANNELS', 'time_boot_ms': 10276, 'chancount': 0, 'chan1_raw': 0, 'chan2_raw': 0, 'chan3_raw': 0, 'chan4_raw': 0, 'chan5_raw': 0, 'chan6_raw': 0, 'chan7_raw': 0, 'chan8_raw': 0, 'chan9_raw': 0, 'chan10_raw': 0, 'chan11_raw': 0, 'chan12_raw': 0, 'chan13_raw': 0, 'chan14_raw': 0, 'chan15_raw': 0, 'chan16_raw': 0, 'chan17_raw': 0, 'chan18_raw': 0, 'rssi': 0
}
{'mavpackettype': 'ATTITUDE', 'time_boot_ms': 10276, 'roll': 0.003155461512506008, 'pitch': 0.017891597002744675, 'yaw': 2.1710526198148727e-05, 'rollspeed': -0.00015485698531847447, 'pitchspeed': 0.0011043064296245575, 'yawspeed': 0.0005732188001275063
}
{'mavpackettype': 'AHRS2', 'roll': 0.0040489984676241875, 'pitch': 0.017453519627451897, 'yaw': -2.3978137969970703, 'altitude': 0.0, 'lat': 0, 'lng': 0
}
{'mavpackettype': 'AHRS3', 'roll': 0.003155461512506008, 'pitch': 0.017891597002744675, 'yaw': 2.1710526198148727e-05, 'altitude': 0.0, 'lat': 0, 'lng': 0, 'v1': 0.0, 'v2': 0.0, 'v3': 0.0, 'v4': 0.0
}
{'mavpackettype': 'VFR_HUD', 'airspeed': 0.0, 'groundspeed': 0.00034626052365638316, 'heading': 0, 'throttle': 0, 'alt': 0.2800000011920929, 'climb': -0.025006620213389397
}
{'mavpackettype': 'AHRS', 'omegaIx': -0.0, 'omegaIy': -0.0, 'omegaIz': -0.0, 'accel_weight': 0.0, 'renorm_val': 0.0, 'error_rp': 0.2103089988231659, 'error_yaw': 0.02376468852162361
}
{'mavpackettype': 'HWSTATUS', 'Vcc': 4887, 'I2Cerr': 0
}
{'mavpackettype': 'SYSTEM_TIME', 'time_unix_usec': 0, 'time_boot_ms': 10277
}
{'mavpackettype': 'BATTERY_STATUS', 'id': 0, 'battery_function': 0, 'type': 0, 'temperature': 32767, 'voltages': [
        65535,
        65535,
        65535,
        65535,
        65535,
        65535,
        65535,
        65535,
        65535,
        65535
    ], 'current_battery': 8, 'current_consumed': 0, 'energy_consumed': 0, 'battery_remaining': 99
}
{'mavpackettype': 'MOUNT_STATUS', 'target_system': 0, 'target_component': 0, 'pointing_a': 0, 'pointing_b': 0, 'pointing_c': 0
}
{'mavpackettype': 'EKF_STATUS_REPORT', 'flags': 0, 'velocity_variance': 0.0, 'pos_horiz_variance': 0.0, 'pos_vert_variance': 0.0, 'compass_variance': 0.0, 'terrain_alt_variance': 0.0
}
{'mavpackettype': 'VIBRATION', 'time_usec': 10277538, 'vibration_x': 0.02537219598889351, 'vibration_y': 0.025379208847880363, 'vibration_z': 0.03766174986958504, 'clipping_0': 0, 'clipping_1': 0, 'clipping_2': 0
}
{'mavpackettype': 'STATUSTEXT', 'severity': 6, 'text': 'EKF2 IMU0 initial yaw alignment complete'
}
{'mavpackettype': 'STATUSTEXT', 'severity': 6, 'text': 'EKF2 IMU1 initial yaw alignment complete'
}
{'mavpackettype': 'HEARTBEAT', 'type': 2, 'autopilot': 3, 'base_mode': 81, 'custom_mode': 0, 'system_status': 3, 'mavlink_version': 3
}
{'mavpackettype': 'RAW_IMU', 'time_usec': 10777664, 'xacc': 17, 'yacc': -6, 'zacc': -996, 'xgyro': 0, 'ygyro': 1, 'zgyro': 0, 'xmag': -145, 'ymag': 129, 'zmag': 344
}
{'mavpackettype': 'SCALED_IMU2', 'time_boot_ms': 10777, 'xacc': 46, 'yacc': -7, 'zacc': -1010, 'xgyro': 0, 'ygyro': -2, 'zgyro': -1, 'xmag': 0, 'ymag': 0, 'zmag': 0
}
{'mavpackettype': 'SCALED_PRESSURE', 'time_boot_ms': 10777, 'press_abs': 1001.231201171875, 'press_diff': 0.0, 'temperature': 3036
}
{'mavpackettype': 'SYS_STATUS', 'onboard_control_sensors_present': 56687695, 'onboard_control_sensors_enabled': 39885903, 'onboard_control_sensors_health': 56687631, 'load': 345, 'voltage_battery': 42, 'current_battery': 8, 'battery_remaining': 99, 'drop_rate_comm': 0, 'errors_comm': 0, 'errors_count1': 0, 'errors_count2': 0, 'errors_count3': 0, 'errors_count4': 0
}
{'mavpackettype': 'POWER_STATUS', 'Vcc': 4890, 'Vservo': 9, 'flags': 4
}
{'mavpackettype': 'MEMINFO', 'brkval': 0, 'freemem': 37024
}
{'mavpackettype': 'MISSION_CURRENT', 'seq': 0
}
{'mavpackettype': 'GPS_RAW_INT', 'time_usec': 0, 'fix_type': 0, 'lat': 0, 'lon': 0, 'alt': 0, 'eph': 65535, 'epv': 65535, 'vel': 0, 'cog': 0, 'satellites_visible': 0
}
{'mavpackettype': 'NAV_CONTROLLER_OUTPUT', 'nav_roll': 0.18659012019634247, 'nav_pitch': 1.0681108236312866, 'nav_bearing': -137, 'target_bearing': 0, 'wp_dist': 0, 'alt_error': 0.0, 'aspd_error': 0.0, 'xtrack_error': 0.0
}
{'mavpackettype': 'GLOBAL_POSITION_INT', 'time_boot_ms': 10778, 'lat': 0, 'lon': 0, 'alt': 180, 'relative_alt': 189, 'vx': 0, 'vy': 0, 'vz': 24, 'hdg': 22270
}
{'mavpackettype': 'SERVO_OUTPUT_RAW', 'time_usec': 10778488, 'port': 0, 'servo1_raw': 1099, 'servo2_raw': 1099, 'servo3_raw': 1099, 'servo4_raw': 1099, 'servo5_raw': 0, 'servo6_raw': 0, 'servo7_raw': 0, 'servo8_raw': 0
}
{'mavpackettype': 'RC_CHANNELS_RAW', 'time_boot_ms': 10778, 'port': 0, 'chan1_raw': 0, 'chan2_raw': 0, 'chan3_raw': 0, 'chan4_raw': 0, 'chan5_raw': 0, 'chan6_raw': 0, 'chan7_raw': 0, 'chan8_raw': 0, 'rssi': 0
}
{'mavpackettype': 'RC_CHANNELS', 'time_boot_ms': 10778, 'chancount': 0, 'chan1_raw': 0, 'chan2_raw': 0, 'chan3_raw': 0, 'chan4_raw': 0, 'chan5_raw': 0, 'chan6_raw': 0, 'chan7_raw': 0, 'chan8_raw': 0, 'chan9_raw': 0, 'chan10_raw': 0, 'chan11_raw': 0, 'chan12_raw': 0, 'chan13_raw': 0, 'chan14_raw': 0, 'chan15_raw': 0, 'chan16_raw': 0, 'chan17_raw': 0, 'chan18_raw': 0, 'rssi': 0
}
{'mavpackettype': 'ATTITUDE', 'time_boot_ms': 10778, 'roll': 0.0032566131558269262, 'pitch': 0.018642054870724678, 'yaw': -2.396484375, 'rollspeed': -0.00031045216019265354, 'pitchspeed': 0.0011611069785431027, 'yawspeed': 0.000858956656884402
}
{'mavpackettype': 'AHRS2', 'roll': 0.004129457287490368, 'pitch': 0.017414052039384842, 'yaw': -2.398268222808838, 'altitude': 0.0, 'lat': 0, 'lng': 0
}
{'mavpackettype': 'AHRS3', 'roll': 0.0032566131558269262, 'pitch': 0.018642054870724678, 'yaw': -2.396484375, 'altitude': 0.0, 'lat': 0, 'lng': 0, 'v1': 0.0, 'v2': 0.0, 'v3': 0.0, 'v4': 0.0
}
{'mavpackettype': 'VFR_HUD', 'airspeed': 0.0, 'groundspeed': 0.008076466619968414, 'heading': 222, 'throttle': 0, 'alt': 0.17999999225139618, 'climb': -0.24196507036685944
}
{'mavpackettype': 'AHRS', 'omegaIx': 2.94631462338657e-07, 'omegaIy': -2.007636510370503e-07, 'omegaIz': 3.3647938835201785e-06, 'accel_weight': 0.0, 'renorm_val': 0.0, 'error_rp': 0.10794912278652191, 'error_yaw': 0.00878242589533329
}
{'mavpackettype': 'HWSTATUS', 'Vcc': 4890, 'I2Cerr': 0
}
{'mavpackettype': 'SYSTEM_TIME', 'time_unix_usec': 0, 'time_boot_ms': 10779
}
{'mavpackettype': 'BATTERY_STATUS', 'id': 0, 'battery_function': 0, 'type': 0, 'temperature': 32767, 'voltages': [
        65535,
        65535,
        65535,
        65535,
        65535,
        65535,
        65535,
        65535,
        65535,
        65535
    ], 'current_battery': 8, 'current_consumed': 0, 'energy_consumed': 0, 'battery_remaining': 99
}
{'mavpackettype': 'MOUNT_STATUS', 'target_system': 0, 'target_component': 0, 'pointing_a': 0, 'pointing_b': 0, 'pointing_c': 0
}
{'mavpackettype': 'EKF_STATUS_REPORT', 'flags': 0, 'velocity_variance': 0.0, 'pos_horiz_variance': 0.00018060496950056404, 'pos_vert_variance': 0.008818436414003372, 'compass_variance': 0.001979260938242078, 'terrain_alt_variance': 0.0
}
{'mavpackettype': 'VIBRATION', 'time_usec': 10779290, 'vibration_x': 0.024631701409816742, 'vibration_y': 0.026551004499197006, 'vibration_z': 0.03281955420970917, 'clipping_0': 0, 'clipping_1': 0, 'clipping_2': 0
}
{'mavpackettype': 'RAW_IMU', 'time_usec': 11279888, 'xacc': 16, 'yacc': 0, 'zacc': -997, 'xgyro': 0, 'ygyro': 0, 'zgyro': 0, 'xmag': -145, 'ymag': 129, 'zmag': 344
}
{'mavpackettype': 'SCALED_IMU2', 'time_boot_ms': 11279, 'xacc': 37, 'yacc': 0, 'zacc': -1005, 'xgyro': 0, 'ygyro': -1, 'zgyro': 0, 'xmag': 0, 'ymag': 0, 'zmag': 0
}
{'mavpackettype': 'SCALED_PRESSURE', 'time_boot_ms': 11279, 'press_abs': 1001.238037109375, 'press_diff': 0.0, 'temperature': 3040
}
{'mavpackettype': 'SENSOR_OFFSETS', 'mag_ofs_x': -32, 'mag_ofs_y': 38, 'mag_ofs_z': 93, 'mag_declination': 0.0, 'raw_press': 100123, 'raw_temp': 3040, 'gyro_cal_x': 0.00162691087462008, 'gyro_cal_y': 0.06653907895088196, 'gyro_cal_z': -0.0113783348351717, 'accel_cal_x': -0.226456880569458, 'accel_cal_y': -0.4480758607387543, 'accel_cal_z': -1.7545185089111328
}
{'mavpackettype': 'SYS_STATUS', 'onboard_control_sensors_present': 56687695, 'onboard_control_sensors_enabled': 39885903, 'onboard_control_sensors_health': 56687631, 'load': 332, 'voltage_battery': 68, 'current_battery': 9, 'battery_remaining': 99, 'drop_rate_comm': 0, 'errors_comm': 0, 'errors_count1': 0, 'errors_count2': 0, 'errors_count3': 0, 'errors_count4': 0
}
{'mavpackettype': 'POWER_STATUS', 'Vcc': 4880, 'Vservo': 9, 'flags': 4
}
{'mavpackettype': 'MEMINFO', 'brkval': 0, 'freemem': 37024
}
{'mavpackettype': 'MISSION_CURRENT', 'seq': 0
}
{'mavpackettype': 'NAV_CONTROLLER_OUTPUT', 'nav_roll': 0.21997447311878204, 'nav_pitch': 1.0910252332687378, 'nav_bearing': -137, 'target_bearing': 0, 'wp_dist': 0, 'alt_error': 0.0, 'aspd_error': 0.0, 'xtrack_error': 0.0
}
{'mavpackettype': 'GLOBAL_POSITION_INT', 'time_boot_ms': 11280, 'lat': 0, 'lon': 0, 'alt': 120, 'relative_alt': 127, 'vx': 0, 'vy': 1, 'vz': 26, 'hdg': 22272
}
{'mavpackettype': 'SERVO_OUTPUT_RAW', 'time_usec': 11280565, 'port': 0, 'servo1_raw': 1099, 'servo2_raw': 1099, 'servo3_raw': 1099, 'servo4_raw': 1099, 'servo5_raw': 0, 'servo6_raw': 0, 'servo7_raw': 0, 'servo8_raw': 0
}
{'mavpackettype': 'RC_CHANNELS_RAW', 'time_boot_ms': 11280, 'port': 0, 'chan1_raw': 0, 'chan2_raw': 0, 'chan3_raw': 0, 'chan4_raw': 0, 'chan5_raw': 0, 'chan6_raw': 0, 'chan7_raw': 0, 'chan8_raw': 0, 'rssi': 0
}
{'mavpackettype': 'RC_CHANNELS', 'time_boot_ms': 11280, 'chancount': 0, 'chan1_raw': 0, 'chan2_raw': 0, 'chan3_raw': 0, 'chan4_raw': 0, 'chan5_raw': 0, 'chan6_raw': 0, 'chan7_raw': 0, 'chan8_raw': 0, 'chan9_raw': 0, 'chan10_raw': 0, 'chan11_raw': 0, 'chan12_raw': 0, 'chan13_raw': 0, 'chan14_raw': 0, 'chan15_raw': 0, 'chan16_raw': 0, 'chan17_raw': 0, 'chan18_raw': 0, 'rssi': 0
}
{'mavpackettype': 'ATTITUDE', 'time_boot_ms': 11280, 'roll': 0.003839279990643263, 'pitch': 0.019041983410716057, 'yaw': -2.3960230350494385, 'rollspeed': -0.00023067163419909775, 'pitchspeed': 0.0005628898506984115, 'yawspeed': 0.0006457955460064113
}
{'mavpackettype': 'AHRS2', 'roll': 0.0040061697363853455, 'pitch': 0.017314601689577103, 'yaw': -2.397406578063965, 'altitude': 0.0, 'lat': 0, 'lng': 0
}
{'mavpackettype': 'AHRS3', 'roll': 0.003839279990643263, 'pitch': 0.019041983410716057, 'yaw': -2.3960230350494385, 'altitude': 0.0, 'lat': 0, 'lng': 0, 'v1': 0.0, 'v2': 0.0, 'v3': 0.0, 'v4': 0.0
}
{'mavpackettype': 'VFR_HUD', 'airspeed': 0.0, 'groundspeed': 0.014193846844136715, 'heading': 222, 'throttle': 0, 'alt': 0.11999999731779099, 'climb': -0.2652624547481537
}
{'mavpackettype': 'AHRS', 'omegaIx': 3.5103348636766896e-06, 'omegaIy': -4.425889983394882e-06, 'omegaIz': 2.7205413061892614e-05, 'accel_weight': 0.0, 'renorm_val': 0.0, 'error_rp': 0.06945223361253738, 'error_yaw': 0.004173986613750458
}
{'mavpackettype': 'HWSTATUS', 'Vcc': 4880, 'I2Cerr': 0
}
{'mavpackettype': 'SYSTEM_TIME', 'time_unix_usec': 0, 'time_boot_ms': 11281
}
{'mavpackettype': 'BATTERY_STATUS', 'id': 0, 'battery_function': 0, 'type': 0, 'temperature': 32767, 'voltages': [
        65535,
        65535,
        65535,
        65535,
        65535,
        65535,
        65535,
        65535,
        65535,
        65535
    ], 'current_battery': 9, 'current_consumed': 0, 'energy_consumed': 0, 'battery_remaining': 99
}
{'mavpackettype': 'MOUNT_STATUS', 'target_system': 0, 'target_component': 0, 'pointing_a': 0, 'pointing_b': 0, 'pointing_c': 0
}
{'mavpackettype': 'EKF_STATUS_REPORT', 'flags': 0, 'velocity_variance': 0.0, 'pos_horiz_variance': 0.00026858606724999845, 'pos_vert_variance': 0.010072216391563416, 'compass_variance': 0.002944763982668519, 'terrain_alt_variance': 0.0
}
{'mavpackettype': 'VIBRATION', 'time_usec': 11281490, 'vibration_x': 0.02657388709485531, 'vibration_y': 0.031078508123755455, 'vibration_z': 0.04198898747563362, 'clipping_0': 0, 'clipping_1': 0, 'clipping_2': 0
}
{'mavpackettype': 'STATUSTEXT', 'severity': 6, 'text': 'EKF2 IMU0 tilt alignment complete'
}
{'mavpackettype': 'STATUSTEXT', 'severity': 6, 'text': 'EKF2 IMU1 tilt alignment complete'
}
{'mavpackettype': 'HEARTBEAT', 'type': 2, 'autopilot': 3, 'base_mode': 81, 'custom_mode': 0, 'system_status': 3, 'mavlink_version': 3
}
{'mavpackettype': 'RAW_IMU', 'time_usec': 11781971, 'xacc': 15, 'yacc': -1, 'zacc': -986, 'xgyro': 0, 'ygyro': 1, 'zgyro': 0, 'xmag': -145, 'ymag': 128, 'zmag': 344
}
{'mavpackettype': 'SCALED_IMU2', 'time_boot_ms': 11782, 'xacc': 36, 'yacc': 5, 'zacc': -1014, 'xgyro': 0, 'ygyro': 0, 'zgyro': 0, 'xmag': 0, 'ymag': 0, 'zmag': 0
}
{'mavpackettype': 'SCALED_PRESSURE', 'time_boot_ms': 11782, 'press_abs': 1001.2269897460938, 'press_diff': 0.0, 'temperature': 3044
}
{'mavpackettype': 'SYS_STATUS', 'onboard_control_sensors_present': 56687695, 'onboard_control_sensors_enabled': 39885903, 'onboard_control_sensors_health': 56687631, 'load': 344, 'voltage_battery': 77, 'current_battery': 9, 'battery_remaining': 99, 'drop_rate_comm': 0, 'errors_comm': 0, 'errors_count1': 0, 'errors_count2': 0, 'errors_count3': 0, 'errors_count4': 0
}
{'mavpackettype': 'POWER_STATUS', 'Vcc': 4890, 'Vservo': 9, 'flags': 4
}
{'mavpackettype': 'MEMINFO', 'brkval': 0, 'freemem': 37008
}
{'mavpackettype': 'MISSION_CURRENT', 'seq': 0
}
{'mavpackettype': 'GPS_RAW_INT', 'time_usec': 0, 'fix_type': 0, 'lat': 0, 'lon': 0, 'alt': 0, 'eph': 65535, 'epv': 65535, 'vel': 0, 'cog': 0, 'satellites_visible': 0
}
{'mavpackettype': 'NAV_CONTROLLER_OUTPUT', 'nav_roll': 0.18362684547901154, 'nav_pitch': 1.0498610734939575, 'nav_bearing': -137, 'target_bearing': 0, 'wp_dist': 0, 'alt_error': 0.10207971930503845, 'aspd_error': 0.0, 'xtrack_error': 0.0
}
{'mavpackettype': 'GLOBAL_POSITION_INT', 'time_boot_ms': 11782, 'lat': 0, 'lon': 0, 'alt': 220, 'relative_alt': 225, 'vx': 0, 'vy': 0, 'vz': 25, 'hdg': 22275
}
{'mavpackettype': 'SERVO_OUTPUT_RAW', 'time_usec': 11782826, 'port': 0, 'servo1_raw': 1099, 'servo2_raw': 1099, 'servo3_raw': 1099, 'servo4_raw': 1099, 'servo5_raw': 0, 'servo6_raw': 0, 'servo7_raw': 0, 'servo8_raw': 0
}
{'mavpackettype': 'RC_CHANNELS_RAW', 'time_boot_ms': 11782, 'port': 0, 'chan1_raw': 0, 'chan2_raw': 0, 'chan3_raw': 0, 'chan4_raw': 0, 'chan5_raw': 0, 'chan6_raw': 0, 'chan7_raw': 0, 'chan8_raw': 0, 'rssi': 0
}
{'mavpackettype': 'RC_CHANNELS', 'time_boot_ms': 11782, 'chancount': 0, 'chan1_raw': 0, 'chan2_raw': 0, 'chan3_raw': 0, 'chan4_raw': 0, 'chan5_raw': 0, 'chan6_raw': 0, 'chan7_raw': 0, 'chan8_raw': 0, 'chan9_raw': 0, 'chan10_raw': 0, 'chan11_raw': 0, 'chan12_raw': 0, 'chan13_raw': 0, 'chan14_raw': 0, 'chan15_raw': 0, 'chan16_raw': 0, 'chan17_raw': 0, 'chan18_raw': 0, 'rssi': 0
}
{'mavpackettype': 'ATTITUDE', 'time_boot_ms': 11782, 'roll': 0.0032048928551375866, 'pitch': 0.018323533236980438, 'yaw': -2.395467519760132, 'rollspeed': -0.0005107323522679508, 'pitchspeed': 0.001440586056560278, 'yawspeed': 0.0004800618626177311
}
{'mavpackettype': 'AHRS2', 'roll': 0.0027350240852683783, 'pitch': 0.017228825017809868, 'yaw': -2.3972461223602295, 'altitude': 0.0, 'lat': 0, 'lng': 0
}
{'mavpackettype': 'AHRS3', 'roll': 0.0032048928551375866, 'pitch': 0.018323533236980438, 'yaw': -2.395467519760132, 'altitude': 0.0, 'lat': 0, 'lng': 0, 'v1': 0.0, 'v2': 0.0, 'v3': 0.0, 'v4': 0.0
}
{'mavpackettype': 'VFR_HUD', 'airspeed': 0.0, 'groundspeed': 0.012633546255528927, 'heading': 222, 'throttle': 0, 'alt': 0.2199999988079071, 'climb': -0.257312148809433
}
{'mavpackettype': 'AHRS', 'omegaIx': 1.0571901839284692e-05, 'omegaIy': -2.1272779122227803e-05, 'omegaIz': 1.0702571671572514e-05, 'accel_weight': 0.0, 'renorm_val': 0.0, 'error_rp': 0.03578387200832367, 'error_yaw': 0.002041311701759696
}
{'mavpackettype': 'HWSTATUS', 'Vcc': 4890, 'I2Cerr': 0
}
{'mavpackettype': 'SYSTEM_TIME', 'time_unix_usec': 0, 'time_boot_ms': 11783
}
{'mavpackettype': 'BATTERY_STATUS', 'id': 0, 'battery_function': 0, 'type': 0, 'temperature': 32767, 'voltages': [
        65535,
        65535,
        65535,
        65535,
        65535,
        65535,
        65535,
        65535,
        65535,
        65535
    ], 'current_battery': 9, 'current_consumed': 0, 'energy_consumed': 0, 'battery_remaining': 99
}
{'mavpackettype': 'MOUNT_STATUS', 'target_system': 0, 'target_component': 0, 'pointing_a': 0, 'pointing_b': 0, 'pointing_c': 0
}
{'mavpackettype': 'EKF_STATUS_REPORT', 'flags': 165, 'velocity_variance': 0.0, 'pos_horiz_variance': 0.000298161874525249, 'pos_vert_variance': 0.013633936643600464, 'compass_variance': 0.0017456993227824569, 'terrain_alt_variance': 0.0
}
{'mavpackettype': 'VIBRATION', 'time_usec': 11783665, 'vibration_x': 0.02666144073009491, 'vibration_y': 0.030211446806788445, 'vibration_z': 0.059285443276166916, 'clipping_0': 0, 'clipping_1': 0, 'clipping_2': 0
}
{'mavpackettype': 'RAW_IMU', 'time_usec': 12284342, 'xacc': 15, 'yacc': -3, 'zacc': -994, 'xgyro': 1, 'ygyro': 1, 'zgyro': 1, 'xmag': -145, 'ymag': 129, 'zmag': 344
}
{'mavpackettype': 'SCALED_IMU2', 'time_boot_ms': 12284, 'xacc': 40, 'yacc': 0, 'zacc': -1016, 'xgyro': 0, 'ygyro': 3, 'zgyro': -2, 'xmag': 0, 'ymag': 0, 'zmag': 0
}
{'mavpackettype': 'SCALED_PRESSURE', 'time_boot_ms': 12284, 'press_abs': 1001.2177734375, 'press_diff': 0.0, 'temperature': 3048
}
{'mavpackettype': 'SYS_STATUS', 'onboard_control_sensors_present': 56687695, 'onboard_control_sensors_enabled': 39885903, 'onboard_control_sensors_health': 56687631, 'load': 341, 'voltage_battery': 71, 'current_battery': 9, 'battery_remaining': 99, 'drop_rate_comm': 0, 'errors_comm': 0, 'errors_count1': 0, 'errors_count2': 0, 'errors_count3': 0, 'errors_count4': 0
}
{'mavpackettype': 'POWER_STATUS', 'Vcc': 4851, 'Vservo': 9, 'flags': 4
}
{'mavpackettype': 'MEMINFO', 'brkval': 0, 'freemem': 37008
}
{'mavpackettype': 'MISSION_CURRENT', 'seq': 0
}
{'mavpackettype': 'NAV_CONTROLLER_OUTPUT', 'nav_roll': 0.1994449943304062, 'nav_pitch': 1.0469248294830322, 'nav_bearing': -137, 'target_bearing': 0, 'wp_dist': 0, 'alt_error': 0.12174168229103088, 'aspd_error': 0.0, 'xtrack_error': 0.0
}
{'mavpackettype': 'GLOBAL_POSITION_INT', 'time_boot_ms': 12284, 'lat': 0, 'lon': 0, 'alt': 300, 'relative_alt': 308, 'vx': 1, 'vy': 0, 'vz': 21, 'hdg': 22275
}
{'mavpackettype': 'SERVO_OUTPUT_RAW', 'time_usec': 12284997, 'port': 0, 'servo1_raw': 1099, 'servo2_raw': 1099, 'servo3_raw': 1099, 'servo4_raw': 1099, 'servo5_raw': 0, 'servo6_raw': 0, 'servo7_raw': 0, 'servo8_raw': 0
}
{'mavpackettype': 'RC_CHANNELS_RAW', 'time_boot_ms': 12285, 'port': 0, 'chan1_raw': 0, 'chan2_raw': 0, 'chan3_raw': 0, 'chan4_raw': 0, 'chan5_raw': 0, 'chan6_raw': 0, 'chan7_raw': 0, 'chan8_raw': 0, 'rssi': 0
}
{'mavpackettype': 'RC_CHANNELS', 'time_boot_ms': 12285, 'chancount': 0, 'chan1_raw': 0, 'chan2_raw': 0, 'chan3_raw': 0, 'chan4_raw': 0, 'chan5_raw': 0, 'chan6_raw': 0, 'chan7_raw': 0, 'chan8_raw': 0, 'chan9_raw': 0, 'chan10_raw': 0, 'chan11_raw': 0, 'chan12_raw': 0, 'chan13_raw': 0, 'chan14_raw': 0, 'chan15_raw': 0, 'chan16_raw': 0, 'chan17_raw': 0, 'chan18_raw': 0, 'rssi': 0
}
{'mavpackettype': 'ATTITUDE', 'time_boot_ms': 12285, 'roll': 0.0034809724893420935, 'pitch': 0.018272286280989647, 'yaw': -2.395479679107666, 'rollspeed': 0.0011391604784876108, 'pitchspeed': 0.0014748636167496443, 'yawspeed': 0.0010439244797453284
}
{'mavpackettype': 'AHRS2', 'roll': 0.00235509080812335, 'pitch': 0.017205873504281044, 'yaw': -2.3969171047210693, 'altitude': 0.0, 'lat': 0, 'lng': 0
}
{'mavpackettype': 'AHRS3', 'roll': 0.0034809724893420935, 'pitch': 0.018272286280989647, 'yaw': -2.395479679107666, 'altitude': 0.0, 'lat': 0, 'lng': 0, 'v1': 0.0, 'v2': 0.0, 'v3': 0.0, 'v4': 0.0
}
{'mavpackettype': 'VFR_HUD', 'airspeed': 0.0, 'groundspeed': 0.012650968506932259, 'heading': 222, 'throttle': 0, 'alt': 0.29999998211860657, 'climb': -0.21149155497550964
}
{'mavpackettype': 'AHRS', 'omegaIx': 1.2117443475290202e-05, 'omegaIy': -5.847889042343013e-05, 'omegaIz': -2.185318044212181e-05, 'accel_weight': 0.0, 'renorm_val': 0.0, 'error_rp': 0.023072008043527603, 'error_yaw': 0.0018342833500355482
}
{'mavpackettype': 'HWSTATUS', 'Vcc': 4880, 'I2Cerr': 0
}
{'mavpackettype': 'SYSTEM_TIME', 'time_unix_usec': 0, 'time_boot_ms': 12285
}
{'mavpackettype': 'BATTERY_STATUS', 'id': 0, 'battery_function': 0, 'type': 0, 'temperature': 32767, 'voltages': [
        65535,
        65535,
        65535,
        65535,
        65535,
        65535,
        65535,
        65535,
        65535,
        65535
    ], 'current_battery': 9, 'current_consumed': 0, 'energy_consumed': 0, 'battery_remaining': 99
}
{'mavpackettype': 'MOUNT_STATUS', 'target_system': 0, 'target_component': 0, 'pointing_a': 0, 'pointing_b': 0, 'pointing_c': 0
}
{'mavpackettype': 'EKF_STATUS_REPORT', 'flags': 165, 'velocity_variance': 0.0, 'pos_horiz_variance': 0.00034457119181752205, 'pos_vert_variance': 0.007393165025860071, 'compass_variance': 9.601567580830306e-05, 'terrain_alt_variance': 0.0
}
{'mavpackettype': 'VIBRATION', 'time_usec': 12285889, 'vibration_x': 0.024861019104719162, 'vibration_y': 0.029776811599731445, 'vibration_z': 0.04277082160115242, 'clipping_0': 0, 'clipping_1': 0, 'clipping_2': 0
}
{'mavpackettype': 'HEARTBEAT', 'type': 2, 'autopilot': 3, 'base_mode': 81, 'custom_mode': 0, 'system_status': 3, 'mavlink_version': 3
}
{'mavpackettype': 'RAW_IMU', 'time_usec': 12786216, 'xacc': 16, 'yacc': -5, 'zacc': -996, 'xgyro': 0, 'ygyro': 0, 'zgyro': 0, 'xmag': -145, 'ymag': 129, 'zmag': 345
}
{'mavpackettype': 'SCALED_IMU2', 'time_boot_ms': 12786, 'xacc': 32, 'yacc': -3, 'zacc': -1009, 'xgyro': -2, 'ygyro': 1, 'zgyro': 1, 'xmag': 0, 'ymag': 0, 'zmag': 0
}
{'mavpackettype': 'SCALED_PRESSURE', 'time_boot_ms': 12786, 'press_abs': 1001.2296752929688, 'press_diff': 0.0, 'temperature': 3052
}
{'mavpackettype': 'SYS_STATUS', 'onboard_control_sensors_present': 56687695, 'onboard_control_sensors_enabled': 39885903, 'onboard_control_sensors_health': 56687631, 'load': 343, 'voltage_battery': 73, 'current_battery': 10, 'battery_remaining': 99, 'drop_rate_comm': 0, 'errors_comm': 0, 'errors_count1': 0, 'errors_count2': 0, 'errors_count3': 0, 'errors_count4': 0
}
{'mavpackettype': 'POWER_STATUS', 'Vcc': 4893, 'Vservo': 9, 'flags': 4
}
{'mavpackettype': 'MEMINFO', 'brkval': 0, 'freemem': 37024
}
{'mavpackettype': 'MISSION_CURRENT', 'seq': 0
}
{'mavpackettype': 'GPS_RAW_INT', 'time_usec': 0, 'fix_type': 0, 'lat': 0, 'lon': 0, 'alt': 0, 'eph': 65535, 'epv': 65535, 'vel': 0, 'cog': 0, 'satellites_visible': 0
}
{'mavpackettype': 'NAV_CONTROLLER_OUTPUT', 'nav_roll': 0.2347739189863205, 'nav_pitch': 1.0661511421203613, 'nav_bearing': -137, 'target_bearing': 0, 'wp_dist': 0, 'alt_error': 0.032674696296453476, 'aspd_error': 0.0, 'xtrack_error': 0.0
}
{'mavpackettype': 'GLOBAL_POSITION_INT', 'time_boot_ms': 12786, 'lat': 0, 'lon': 0, 'alt': 200, 'relative_alt': 203, 'vx': 1, 'vy': 0, 'vz': 10, 'hdg': 22275
}
{'mavpackettype': 'SERVO_OUTPUT_RAW', 'time_usec': 12786990, 'port': 0, 'servo1_raw': 1099, 'servo2_raw': 1099, 'servo3_raw': 1099, 'servo4_raw': 1099, 'servo5_raw': 0, 'servo6_raw': 0, 'servo7_raw': 0, 'servo8_raw': 0
}
{'mavpackettype': 'RC_CHANNELS_RAW', 'time_boot_ms': 12787, 'port': 0, 'chan1_raw': 0, 'chan2_raw': 0, 'chan3_raw': 0, 'chan4_raw': 0, 'chan5_raw': 0, 'chan6_raw': 0, 'chan7_raw': 0, 'chan8_raw': 0, 'rssi': 0
}
{'mavpackettype': 'RC_CHANNELS', 'time_boot_ms': 12787, 'chancount': 0, 'chan1_raw': 0, 'chan2_raw': 0, 'chan3_raw': 0, 'chan4_raw': 0, 'chan5_raw': 0, 'chan6_raw': 0, 'chan7_raw': 0, 'chan8_raw': 0, 'chan9_raw': 0, 'chan10_raw': 0, 'chan11_raw': 0, 'chan12_raw': 0, 'chan13_raw': 0, 'chan14_raw': 0, 'chan15_raw': 0, 'chan16_raw': 0, 'chan17_raw': 0, 'chan18_raw': 0, 'rssi': 0
}
{'mavpackettype': 'ATTITUDE', 'time_boot_ms': 12787, 'roll': 0.004097578581422567, 'pitch': 0.0186078529804945, 'yaw': -2.395587682723999, 'rollspeed': -0.0007053965236991644, 'pitchspeed': 0.0003428469935897738, 'yawspeed': -0.00017979821132030338
}
{'mavpackettype': 'AHRS2', 'roll': 0.003049758030101657, 'pitch': 0.01771971583366394, 'yaw': -2.3962130546569824, 'altitude': 0.0, 'lat': 0, 'lng': 0
}
{'mavpackettype': 'AHRS3', 'roll': 0.004097578581422567, 'pitch': 0.0186078529804945, 'yaw': -2.395587682723999, 'altitude': 0.0, 'lat': 0, 'lng': 0, 'v1': 0.0, 'v2': 0.0, 'v3': 0.0, 'v4': 0.0
}
{'mavpackettype': 'VFR_HUD', 'airspeed': 0.0, 'groundspeed': 0.013894827105104923, 'heading': 222, 'throttle': 0, 'alt': 0.19999998807907104, 'climb': -0.10411801189184189
}
{'mavpackettype': 'AHRS', 'omegaIx': -2.719115582294762e-05, 'omegaIy': -0.00013581299572251737, 'omegaIz': -5.0953287427546456e-05, 'accel_weight': 0.0, 'renorm_val': 0.0, 'error_rp': 0.01228906400501728, 'error_yaw': 0.0015233823796734214
}
{'mavpackettype': 'HWSTATUS', 'Vcc': 4893, 'I2Cerr': 0
}
{'mavpackettype': 'SYSTEM_TIME', 'time_unix_usec': 0, 'time_boot_ms': 12787
}
{'mavpackettype': 'BATTERY_STATUS', 'id': 0, 'battery_function': 0, 'type': 0, 'temperature': 32767, 'voltages': [
        65535,
        65535,
        65535,
        65535,
        65535,
        65535,
        65535,
        65535,
        65535,
        65535
    ], 'current_battery': 10, 'current_consumed': 0, 'energy_consumed': 0, 'battery_remaining': 99
}
{'mavpackettype': 'MOUNT_STATUS', 'target_system': 0, 'target_component': 0, 'pointing_a': 0, 'pointing_b': 0, 'pointing_c': 0
}
{'mavpackettype': 'EKF_STATUS_REPORT', 'flags': 165, 'velocity_variance': 0.0, 'pos_horiz_variance': 0.0005142036243341863, 'pos_vert_variance': 0.011350847780704498, 'compass_variance': 0.0010061004431918263, 'terrain_alt_variance': 0.0
}
{'mavpackettype': 'VIBRATION', 'time_usec': 12787781, 'vibration_x': 0.03134195879101753, 'vibration_y': 0.03444117307662964, 'vibration_z': 0.04117312282323837, 'clipping_0': 0, 'clipping_1': 0, 'clipping_2': 0
}
{'mavpackettype': 'RAW_IMU', 'time_usec': 13288294, 'xacc': 16, 'yacc': -1, 'zacc': -995, 'xgyro': 0, 'ygyro': 2, 'zgyro': 0, 'xmag': -145, 'ymag': 130, 'zmag': 344
}
{'mavpackettype': 'SCALED_IMU2', 'time_boot_ms': 13288, 'xacc': 26, 'yacc': 2, 'zacc': -1008, 'xgyro': 0, 'ygyro': 1, 'zgyro': 1, 'xmag': 0, 'ymag': 0, 'zmag': 0
}
{'mavpackettype': 'SCALED_PRESSURE', 'time_boot_ms': 13288, 'press_abs': 1001.2286376953125, 'press_diff': 0.0, 'temperature': 3056
}
{'mavpackettype': 'SYS_STATUS', 'onboard_control_sensors_present': 56687695, 'onboard_control_sensors_enabled': 39885903, 'onboard_control_sensors_health': 56687631, 'load': 336, 'voltage_battery': 65, 'current_battery': 7, 'battery_remaining': 99, 'drop_rate_comm': 0, 'errors_comm': 0, 'errors_count1': 0, 'errors_count2': 0, 'errors_count3': 0, 'errors_count4': 0
}
{'mavpackettype': 'POWER_STATUS', 'Vcc': 4890, 'Vservo': 7, 'flags': 4
}
{'mavpackettype': 'MEMINFO', 'brkval': 0, 'freemem': 37024
}
{'mavpackettype': 'MISSION_CURRENT', 'seq': 0
}
{'mavpackettype': 'NAV_CONTROLLER_OUTPUT', 'nav_roll': 0.22981365025043488, 'nav_pitch': 1.0722836256027222, 'nav_bearing': -137, 'target_bearing': 0, 'wp_dist': 0, 'alt_error': -0.10995016992092133, 'aspd_error': 0.0, 'xtrack_error': 0.0
}
{'mavpackettype': 'GLOBAL_POSITION_INT', 'time_boot_ms': 13288, 'lat': 0, 'lon': 0, 'alt': 210, 'relative_alt': 211, 'vx': 1, 'vy': 0, 'vz': 0, 'hdg': 22276
}
{'mavpackettype': 'SERVO_OUTPUT_RAW', 'time_usec': 13289197, 'port': 0, 'servo1_raw': 1099, 'servo2_raw': 1099, 'servo3_raw': 1099, 'servo4_raw': 1099, 'servo5_raw': 0, 'servo6_raw': 0, 'servo7_raw': 0, 'servo8_raw': 0
}
{'mavpackettype': 'RC_CHANNELS_RAW', 'time_boot_ms': 13289, 'port': 0, 'chan1_raw': 0, 'chan2_raw': 0, 'chan3_raw': 0, 'chan4_raw': 0, 'chan5_raw': 0, 'chan6_raw': 0, 'chan7_raw': 0, 'chan8_raw': 0, 'rssi': 0
}
{'mavpackettype': 'RC_CHANNELS', 'time_boot_ms': 13289, 'chancount': 0, 'chan1_raw': 0, 'chan2_raw': 0, 'chan3_raw': 0, 'chan4_raw': 0, 'chan5_raw': 0, 'chan6_raw': 0, 'chan7_raw': 0, 'chan8_raw': 0, 'chan9_raw': 0, 'chan10_raw': 0, 'chan11_raw': 0, 'chan12_raw': 0, 'chan13_raw': 0, 'chan14_raw': 0, 'chan15_raw': 0, 'chan16_raw': 0, 'chan17_raw': 0, 'chan18_raw': 0, 'rssi': 0
}
{'mavpackettype': 'ATTITUDE', 'time_boot_ms': 13289, 'roll': 0.004011004697531462, 'pitch': 0.01871488243341446, 'yaw': -2.395366668701172, 'rollspeed': 0.00036463222932070494, 'pitchspeed': 0.0022022423800081015, 'yawspeed': -0.0002521319838706404
}
{'mavpackettype': 'AHRS2', 'roll': 0.003325781784951687, 'pitch': 0.0173825491219759, 'yaw': -2.3961381912231445, 'altitude': 0.0, 'lat': 0, 'lng': 0
}
{'mavpackettype': 'AHRS3', 'roll': 0.004011004697531462, 'pitch': 0.01871488243341446, 'yaw': -2.395366668701172, 'altitude': 0.0, 'lat': 0, 'lng': 0, 'v1': 0.0, 'v2': 0.0, 'v3': 0.0, 'v4': 0.0
}
{'mavpackettype': 'VFR_HUD', 'airspeed': 0.0, 'groundspeed': 0.017221946269273758, 'heading': 222, 'throttle': 0, 'alt': 0.20999999344348907, 'climb': 0.007873841561377048
}
{'mavpackettype': 'AHRS', 'omegaIx': -9.457232226850465e-05, 'omegaIy': -0.00028064180514775217, 'omegaIz': -6.149520049802959e-05, 'accel_weight': 0.0, 'renorm_val': 0.0, 'error_rp': 0.008289257995784283, 'error_yaw': 0.0016145292902365327
}
{'mavpackettype': 'HWSTATUS', 'Vcc': 4890, 'I2Cerr': 0
}
{'mavpackettype': 'SYSTEM_TIME', 'time_unix_usec': 0, 'time_boot_ms': 13289
}
{'mavpackettype': 'BATTERY_STATUS', 'id': 0, 'battery_function': 0, 'type': 0, 'temperature': 32767, 'voltages': [
        65535,
        65535,
        65535,
        65535,
        65535,
        65535,
        65535,
        65535,
        65535,
        65535
    ], 'current_battery': 7, 'current_consumed': 0, 'energy_consumed': 0, 'battery_remaining': 99
}
{'mavpackettype': 'MOUNT_STATUS', 'target_system': 0, 'target_component': 0, 'pointing_a': 0, 'pointing_b': 0, 'pointing_c': 0
}
{'mavpackettype': 'EKF_STATUS_REPORT', 'flags': 165, 'velocity_variance': 0.0, 'pos_horiz_variance': 0.0006733848713338375, 'pos_vert_variance': 0.007382942363619804, 'compass_variance': 0.001542547601275146, 'terrain_alt_variance': 0.0
}
{'mavpackettype': 'VIBRATION', 'time_usec': 13289974, 'vibration_x': 0.025460951030254364, 'vibration_y': 0.030131658539175987, 'vibration_z': 0.04381626099348068, 'clipping_0': 0, 'clipping_1': 0, 'clipping_2': 0
}
{'mavpackettype': 'HEARTBEAT', 'type': 2, 'autopilot': 3, 'base_mode': 81, 'custom_mode': 0, 'system_status': 3, 'mavlink_version': 3
}
{'mavpackettype': 'RAW_IMU', 'time_usec': 13790027, 'xacc': 15, 'yacc': -5, 'zacc': -995, 'xgyro': 1, 'ygyro': 1, 'zgyro': 0, 'xmag': -145, 'ymag': 129, 'zmag': 344
}
{'mavpackettype': 'SCALED_IMU2', 'time_boot_ms': 13790, 'xacc': 40, 'yacc': -8, 'zacc': -1007, 'xgyro': 2, 'ygyro': 5, 'zgyro': 2, 'xmag': 0, 'ymag': 0, 'zmag': 0
}
{'mavpackettype': 'SCALED_PRESSURE', 'time_boot_ms': 13790, 'press_abs': 1001.239501953125, 'press_diff': 0.0, 'temperature': 3060
}
{'mavpackettype': 'SYS_STATUS', 'onboard_control_sensors_present': 56687695, 'onboard_control_sensors_enabled': 39885903, 'onboard_control_sensors_health': 56687631, 'load': 334, 'voltage_battery': 79, 'current_battery': 8, 'battery_remaining': 99, 'drop_rate_comm': 0, 'errors_comm': 0, 'errors_count1': 0, 'errors_count2': 0, 'errors_count3': 0, 'errors_count4': 0
}
{'mavpackettype': 'POWER_STATUS', 'Vcc': 4877, 'Vservo': 9, 'flags': 4
}
{'mavpackettype': 'MEMINFO', 'brkval': 0, 'freemem': 37024
}
{'mavpackettype': 'MISSION_CURRENT', 'seq': 0
}
{'mavpackettype': 'GPS_RAW_INT', 'time_usec': 0, 'fix_type': 0, 'lat': 0, 'lon': 0, 'alt': 0, 'eph': 65535, 'epv': 65535, 'vel': 0, 'cog': 0, 'satellites_visible': 0
}
{'mavpackettype': 'NAV_CONTROLLER_OUTPUT', 'nav_roll': 0.2314361333847046, 'nav_pitch': 1.069253921508789, 'nav_bearing': -137, 'target_bearing': 0, 'wp_dist': 0, 'alt_error': -0.21115393936634064, 'aspd_error': 0.0, 'xtrack_error': 0.0
}
{'mavpackettype': 'GLOBAL_POSITION_INT', 'time_boot_ms': 13790, 'lat': 0, 'lon': 0, 'alt': 110, 'relative_alt': 114, 'vx': 1, 'vy': 0, 'vz': -7, 'hdg': 22277
}
{'mavpackettype': 'SERVO_OUTPUT_RAW', 'time_usec': 13790702, 'port': 0, 'servo1_raw': 1099, 'servo2_raw': 1099, 'servo3_raw': 1099, 'servo4_raw': 1099, 'servo5_raw': 0, 'servo6_raw': 0, 'servo7_raw': 0, 'servo8_raw': 0
}
{'mavpackettype': 'RC_CHANNELS_RAW', 'time_boot_ms': 13790, 'port': 0, 'chan1_raw': 0, 'chan2_raw': 0, 'chan3_raw': 0, 'chan4_raw': 0, 'chan5_raw': 0, 'chan6_raw': 0, 'chan7_raw': 0, 'chan8_raw': 0, 'rssi': 0
}
{'mavpackettype': 'RC_CHANNELS', 'time_boot_ms': 13790, 'chancount': 0, 'chan1_raw': 0, 'chan2_raw': 0, 'chan3_raw': 0, 'chan4_raw': 0, 'chan5_raw': 0, 'chan6_raw': 0, 'chan7_raw': 0, 'chan8_raw': 0, 'chan9_raw': 0, 'chan10_raw': 0, 'chan11_raw': 0, 'chan12_raw': 0, 'chan13_raw': 0, 'chan14_raw': 0, 'chan15_raw': 0, 'chan16_raw': 0, 'chan17_raw': 0, 'chan18_raw': 0, 'rssi': 0
}
{'mavpackettype': 'ATTITUDE', 'time_boot_ms': 13790, 'roll': 0.004039322957396507, 'pitch': 0.018662001937627792, 'yaw': -2.3951306343078613, 'rollspeed': 0.001307267346419394, 'pitchspeed': 0.0012495386181399226, 'yawspeed': 0.0001366536016575992
}
{'mavpackettype': 'AHRS2', 'roll': 0.0036350723821669817, 'pitch': 0.017377637326717377, 'yaw': -2.3956518173217773, 'altitude': 0.0, 'lat': 0, 'lng': 0
}
{'mavpackettype': 'AHRS3', 'roll': 0.004039322957396507, 'pitch': 0.018662001937627792, 'yaw': -2.3951306343078613, 'altitude': 0.0, 'lat': 0, 'lng': 0, 'v1': 0.0, 'v2': 0.0, 'v3': 0.0, 'v4': 0.0
}
{'mavpackettype': 'VFR_HUD', 'airspeed': 0.0, 'groundspeed': 0.01680343970656395, 'heading': 222, 'throttle': 0, 'alt': 0.10999999940395355, 'climb': 0.0704902932047844
}
{'mavpackettype': 'AHRS', 'omegaIx': -0.00015508955402765423, 'omegaIy': -0.0005147493211552501, 'omegaIz': -1.075962973118294e-05, 'accel_weight': 0.0, 'renorm_val': 0.0, 'error_rp': 0.004585836548358202, 'error_yaw': 0.001014337525703013
}
{'mavpackettype': 'HWSTATUS', 'Vcc': 4877, 'I2Cerr': 0
}
{'mavpackettype': 'SYSTEM_TIME', 'time_unix_usec': 0, 'time_boot_ms': 13791
}